[
  {
    "id": 1,
    "name": "Miami Advanced Imaging Center",
    "address": "1200 Biscayne Blvd",
    "city": "Miami",
    "state": "FL",
    "zip_code": "33132",
    "latitude": 25.7882,
    "longitude": -80.1887,
    "studies_offered": ["MRI", "CT", "Ultrasound", "X-Ray"],
    "body_parts": ["Brain", "Shoulder", "Knee", "Spine"],
    "scan_types_available": ["Without Contrast", "With Contrast", "With and Without Contrast"],
    "prices": {
      "MRI": 350,
      "CT": 200,
      "Ultrasound": 150,
      "X-Ray": 100
    },
    "appointment_availability": "1-2 Days",
    "accreditation_status": "ACR Accredited",
    "board_certified": true,
    "active": true
  },
  {
    "id": 2,
    "name": "Fort Lauderdale Diagnostic Center",
    "address": "1800 E Las Olas Blvd",
    "city": "Fort Lauderdale",
    "state": "FL",
    "zip_code": "33301",
    "latitude": 26.1196,
    "longitude": -80.1312,
    "studies_offered": ["MRI", "CT", "X-Ray"],
    "body_parts": ["Brain", "Knee", "Spine", "Abdomen"],
    "scan_types_available": ["Without Contrast", "With Contrast"],
    "prices": {
      "MRI": 375,
      "CT": 220,
      "X-Ray": 110
    },
    "appointment_availability": "Same Day",
    "accreditation_status": "ACR Accredited",
    "board_certified": true,
    "active": true
  },
  {
    "id": 3,
    "name": "Orlando Medical Imaging",
    "address": "7350 International Dr",
    "city": "Orlando",
    "state": "FL",
    "zip_code": "32819",
    "latitude": 28.4570,
    "longitude": -81.4707,
    "studies_offered": ["MRI", "CT", "Ultrasound", "X-Ray", "Mammography"],
    "body_parts": ["Brain", "Shoulder", "Knee", "Spine", "Chest"],
    "scan_types_available": ["Without Contrast", "With Contrast", "With and Without Contrast"],
    "prices": {
      "MRI": 325,
      "CT": 190,
      "Ultrasound": 140,
      "X-Ray": 95,
      "Mammography": 225
    },
    "appointment_availability": "2-3 Days",
    "accreditation_status": "ACR Accredited",
    "board_certified": true,
    "active": true
  },
  {
    "id": 4,
    "name": "Tampa Bay Radiology Group",
    "address": "500 N Tampa St",
    "city": "Tampa",
    "state": "FL",
    "zip_code": "33602",
    "latitude": 27.9478,
    "longitude": -82.4584,
    "studies_offered": ["MRI", "CT", "Ultrasound", "X-Ray"],
    "body_parts": ["Brain", "Shoulder", "Hip", "Knee", "Spine"],
    "scan_types_available": ["Without Contrast", "With Contrast", "With and Without Contrast"],
    "prices": {
      "MRI": 340,
      "CT": 210,
      "Ultrasound": 155,
      "X-Ray": 105
    },
    "appointment_availability": "1-2 Days",
    "accreditation_status": "ACR Accredited",
    "board_certified": true,
    "active": true
  },
  {
    "id": 5,
    "name": "Atlanta Imaging Specialists",
    "address": "1100 Peachtree St NE",
    "city": "Atlanta",
    "state": "GA",
    "zip_code": "30309",
    "latitude": 33.7863,
    "longitude": -84.3827,
    "studies_offered": ["MRI", "CT", "Ultrasound", "X-Ray", "PET/CT"],
    "body_parts": ["Brain", "Shoulder", "Knee", "Spine", "Chest", "Abdomen"],
    "scan_types_available": ["Without Contrast", "With Contrast", "With and Without Contrast"],
    "prices": {
      "MRI": 365,
      "CT": 215,
      "Ultrasound": 145,
      "X-Ray": 110,
      "PET/CT": 1200
    },
    "appointment_availability": "1-3 Days",
    "accreditation_status": "ACR Accredited",
    "board_certified": true,
    "active": true
  },
  {
    "id": 6,
    "name": "Dallas Radiology Partners",
    "address": "2001 Bryan St",
    "city": "Dallas",
    "state": "TX",
    "zip_code": "75201",
    "latitude": 32.7866,
    "longitude": -96.7969,
    "studies_offered": ["MRI", "CT", "Ultrasound", "X-Ray"],
    "body_parts": ["Brain", "Shoulder", "Knee", "Spine", "Abdomen"],
    "scan_types_available": ["Without Contrast", "With Contrast", "With and Without Contrast"],
    "prices": {
      "MRI": 390,
      "CT": 225,
      "Ultrasound": 160,
      "X-Ray": 115
    },
    "appointment_availability": "1-2 Days",
    "accreditation_status": "ACR Accredited",
    "board_certified": true,
    "active": true
  },
  {
    "id": 7,
    "name": "Houston Medical Imaging",
    "address": "6565 Fannin St",
    "city": "Houston",
    "state": "TX",
    "zip_code": "77030",
    "latitude": 29.7102,
    "longitude": -95.4002,
    "studies_offered": ["MRI", "CT", "Ultrasound", "X-Ray", "Nuclear Medicine"],
    "body_parts": ["Brain", "Shoulder", "Knee", "Spine", "Pelvis", "Chest"],
    "scan_types_available": ["Without Contrast", "With Contrast", "With and Without Contrast"],
    "prices": {
      "MRI": 380,
      "CT": 230,
      "Ultrasound": 165,
      "X-Ray": 110,
      "Nuclear Medicine": 850
    },
    "appointment_availability": "2-3 Days",
    "accreditation_status": "ACR Accredited",
    "board_certified": true,
    "active": true
  },
  {
    "id": 8,
    "name": "Austin Diagnostic Clinic",
    "address": "12221 MoPac Expressway N",
    "city": "Austin",
    "state": "TX",
    "zip_code": "78758",
    "latitude": 30.4071,
    "longitude": -97.7162,
    "studies_offered": ["MRI", "CT", "Ultrasound", "X-Ray"],
    "body_parts": ["Brain", "Shoulder", "Knee", "Spine", "Abdomen", "Pelvis"],
    "scan_types_available": ["Without Contrast", "With Contrast", "With and Without Contrast"],
    "prices": {
      "MRI": 360,
      "CT": 215,
      "Ultrasound": 155,
      "X-Ray": 105
    },
    "appointment_availability": "1-3 Days",
    "accreditation_status": "ACR Accredited",
    "board_certified": true,
    "active": true
  },
  {
    "id": 9,
    "name": "Chicago Imaging Center",
    "address": "233 E Erie St",
    "city": "Chicago",
    "state": "IL",
    "zip_code": "60611",
    "latitude": 41.8942,
    "longitude": -87.6215,
    "studies_offered": ["MRI", "CT", "Ultrasound", "X-Ray", "PET/CT", "Mammography"],
    "body_parts": ["Brain", "Shoulder", "Knee", "Spine", "Chest", "Abdomen", "Pelvis"],
    "scan_types_available": ["Without Contrast", "With Contrast", "With and Without Contrast"],
    "prices": {
      "MRI": 395,
      "CT": 240,
      "Ultrasound": 170,
      "X-Ray": 125,
      "PET/CT": 1250,
      "Mammography": 230
    },
    "appointment_availability": "2-4 Days",
    "accreditation_status": "ACR Accredited",
    "board_certified": true,
    "active": true
  },
  {
    "id": 10,
    "name": "New York Diagnostic Imaging",
    "address": "1250 Broadway",
    "city": "New York",
    "state": "NY",
    "zip_code": "10001",
    "latitude": 40.7471,
    "longitude": -73.9883,
    "studies_offered": ["MRI", "CT", "Ultrasound", "X-Ray", "Mammography", "Bone Density"],
    "body_parts": ["Brain", "Shoulder", "Knee", "Spine", "Chest", "Abdomen", "Pelvis"],
    "scan_types_available": ["Without Contrast", "With Contrast", "With and Without Contrast"],
    "prices": {
      "MRI": 420,
      "CT": 260,
      "Ultrasound": 180,
      "X-Ray": 135,
      "Mammography": 245,
      "Bone Density": 175
    },
    "appointment_availability": "3-5 Days",
    "accreditation_status": "ACR Accredited",
    "board_certified": true,
    "active": true
  },
  {
    "id": 11,
    "name": "Miami Beach Radiology",
    "address": "4302 Alton Rd",
    "city": "Miami",
    "state": "FL",
    "zip_code": "33140",
    "latitude": 25.8171,
    "longitude": -80.1400,
    "studies_offered": ["MRI", "CT", "Ultrasound", "X-Ray"],
    "body_parts": ["Brain", "Shoulder", "Knee", "Spine", "Abdomen"],
    "scan_types_available": ["Without Contrast", "With Contrast", "With and Without Contrast"],
    "prices": {
      "MRI": 370,
      "CT": 210,
      "Ultrasound": 155,
      "X-Ray": 110
    },
    "appointment_availability": "1-2 Days",
    "accreditation_status": "ACR Accredited",
    "board_certified": true,
    "active": true
  },
  {
    "id": 12,
    "name": "Boca Raton Imaging Center",
    "address": "1905 Clint Moore Rd",
    "city": "Boca Raton",
    "state": "FL",
    "zip_code": "33487",
    "latitude": 26.4086,
    "longitude": -80.1244,
    "studies_offered": ["MRI", "CT", "Ultrasound", "X-Ray", "Mammography"],
    "body_parts": ["Brain", "Shoulder", "Knee", "Spine", "Chest"],
    "scan_types_available": ["Without Contrast", "With Contrast", "With and Without Contrast"],
    "prices": {
      "MRI": 360,
      "CT": 205,
      "Ultrasound": 145,
      "X-Ray": 105,
      "Mammography": 220
    },
    "appointment_availability": "Same Day",
    "accreditation_status": "ACR Accredited",
    "board_certified": true,
    "active": true
  },
  {
    "id": 13,
    "name": "Atlanta Premier Diagnostics",
    "address": "550 Peachtree St NE",
    "city": "Atlanta",
    "state": "GA",
    "zip_code": "30308",
    "latitude": 33.7687,
    "longitude": -84.3851,
    "studies_offered": ["MRI", "CT", "Ultrasound", "X-Ray", "PET/CT"],
    "body_parts": ["Brain", "Shoulder", "Knee", "Spine", "Abdomen", "Pelvis"],
    "scan_types_available": ["Without Contrast", "With Contrast", "With and Without Contrast"],
    "prices": {
      "MRI": 380,
      "CT": 225,
      "Ultrasound": 160,
      "X-Ray": 115,
      "PET/CT": 1150
    },
    "appointment_availability": "2-3 Days",
    "accreditation_status": "ACR Accredited",
    "board_certified": true,
    "active": true
  },
  {
    "id": 14,
    "name": "Orlando Advanced Imaging",
    "address": "1800 Sand Lake Rd",
    "city": "Orlando",
    "state": "FL",
    "zip_code": "32809",
    "latitude": 28.4502,
    "longitude": -81.4052,
    "studies_offered": ["MRI", "CT", "Ultrasound", "X-Ray"],
    "body_parts": ["Brain", "Shoulder", "Knee", "Spine", "Chest"],
    "scan_types_available": ["Without Contrast", "With Contrast", "With and Without Contrast"],
    "prices": {
      "MRI": 340,
      "CT": 195,
      "Ultrasound": 145,
      "X-Ray": 100
    },
    "appointment_availability": "1-3 Days",
    "accreditation_status": "ACR Accredited",
    "board_certified": true,
    "active": true
  },
  {
    "id": 15,
    "name": "Tampa Medical Imaging",
    "address": "3000 E Fletcher Ave",
    "city": "Tampa",
    "state": "FL",
    "zip_code": "33613",
    "latitude": 28.0689,
    "longitude": -82.4254,
    "studies_offered": ["MRI", "CT", "Ultrasound", "X-Ray", "Mammography"],
    "body_parts": ["Brain", "Shoulder", "Knee", "Spine", "Chest"],
    "scan_types_available": ["Without Contrast", "With Contrast", "With and Without Contrast"],
    "prices": {
      "MRI": 355,
      "CT": 205,
      "Ultrasound": 150,
      "X-Ray": 105,
      "Mammography": 215
    },
    "appointment_availability": "1-2 Days",
    "accreditation_status": "ACR Accredited",
    "board_certified": true,
    "active": true
  },
  {
    "id": 16,
    "name": "Dallas Medical Center Radiology",
    "address": "7777 Forest Ln",
    "city": "Dallas",
    "state": "TX",
    "zip_code": "75230",
    "latitude": 32.9091,
    "longitude": -96.7697,
    "studies_offered": ["MRI", "CT", "Ultrasound", "X-Ray", "Nuclear Medicine"],
    "body_parts": ["Brain", "Shoulder", "Knee", "Spine", "Chest", "Abdomen"],
    "scan_types_available": ["Without Contrast", "With Contrast", "With and Without Contrast"],
    "prices": {
      "MRI": 375,
      "CT": 220,
      "Ultrasound": 155,
      "X-Ray": 110,
      "Nuclear Medicine": 825
    },
    "appointment_availability": "2-3 Days",
    "accreditation_status": "ACR Accredited",
    "board_certified": true,
    "active": true
  },
  {
    "id": 17,
    "name": "Houston Diagnostic Imaging",
    "address": "1200 Binz St",
    "city": "Houston",
    "state": "TX",
    "zip_code": "77004",
    "latitude": 29.7241,
    "longitude": -95.3833,
    "studies_offered": ["MRI", "CT", "Ultrasound", "X-Ray"],
    "body_parts": ["Brain", "Shoulder", "Knee", "Spine", "Abdomen"],
    "scan_types_available": ["Without Contrast", "With Contrast", "With and Without Contrast"],
    "prices": {
      "MRI": 365,
      "CT": 215,
      "Ultrasound": 160,
      "X-Ray": 105
    },
    "appointment_availability": "1-2 Days",
    "accreditation_status": "ACR Accredited",
    "board_certified": true,
    "active": true
  },
  {
    "id": 18,
    "name": "Austin Medical Imaging",
    "address": "3801 N Lamar Blvd",
    "city": "Austin",
    "state": "TX",
    "zip_code": "78756",
    "latitude": 30.3087,
    "longitude": -97.7395,
    "studies_offered": ["MRI", "CT", "Ultrasound", "X-Ray", "Mammography"],
    "body_parts": ["Brain", "Shoulder", "Knee", "Spine", "Chest"],
    "scan_types_available": ["Without Contrast", "With Contrast", "With and Without Contrast"],
    "prices": {
      "MRI": 355,
      "CT": 210,
      "Ultrasound": 150,
      "X-Ray": 100,
      "Mammography": 210
    },
    "appointment_availability": "1-3 Days",
    "accreditation_status": "ACR Accredited",
    "board_certified": true,
    "active": true
  },
  {
    "id": 19,
    "name": "Chicago Advanced Diagnostic Center",
    "address": "150 E Huron St",
    "city": "Chicago",
    "state": "IL",
    "zip_code": "60611",
    "latitude": 41.8948,
    "longitude": -87.6233,
    "studies_offered": ["MRI", "CT", "Ultrasound", "X-Ray", "PET/CT"],
    "body_parts": ["Brain", "Shoulder", "Knee", "Spine", "Chest", "Abdomen"],
    "scan_types_available": ["Without Contrast", "With Contrast", "With and Without Contrast"],
    "prices": {
      "MRI": 385,
      "CT": 230,
      "Ultrasound": 165,
      "X-Ray": 120,
      "PET/CT": 1200
    },
    "appointment_availability": "2-4 Days",
    "accreditation_status": "ACR Accredited",
    "board_certified": true,
    "active": true
  },
  {
    "id": 20,
    "name": "New York Medical Imaging",
    "address": "333 E 34th St",
    "city": "New York",
    "state": "NY",
    "zip_code": "10016",
    "latitude": 40.7456,
    "longitude": -73.9738,
    "studies_offered": ["MRI", "CT", "Ultrasound", "X-Ray", "Mammography", "Bone Density"],
    "body_parts": ["Brain", "Shoulder", "Knee", "Spine", "Chest", "Abdomen", "Pelvis"],
    "scan_types_available": ["Without Contrast", "With Contrast", "With and Without Contrast"],
    "prices": {
      "MRI": 410,
      "CT": 250,
      "Ultrasound": 175,
      "X-Ray": 130,
      "Mammography": 240,
      "Bone Density": 170
    },
    "appointment_availability": "3-5 Days",
    "accreditation_status": "ACR Accredited",
    "board_certified": true,
    "active": true
  },
  {
    "id": 21,
    "name": "Coral Gables Imaging Center",
    "address": "3661 S Miami Ave",
    "city": "Miami",
    "state": "FL",
    "zip_code": "33133",
    "latitude": 25.7472,
    "longitude": -80.2108,
    "studies_offered": ["MRI", "CT", "Ultrasound", "X-Ray", "Mammography"],
    "body_parts": ["Brain", "Shoulder", "Knee", "Spine", "Chest"],
    "scan_types_available": ["Without Contrast", "With Contrast", "With and Without Contrast"],
    "prices": {
      "MRI": 360,
      "CT": 205,
      "Ultrasound": 150,
      "X-Ray": 105,
      "Mammography": 220
    },
    "appointment_availability": "1-2 Days",
    "accreditation_status": "ACR Accredited",
    "board_certified": true,
    "active": true
  },
  {
    "id": 22,
    "name": "Buckhead Radiology Associates",
    "address": "3200 Downwood Cir NW",
    "city": "Atlanta",
    "state": "GA",
    "zip_code": "30327",
    "latitude": 33.8511,
    "longitude": -84.4254,
    "studies_offered": ["MRI", "CT", "Ultrasound", "X-Ray"],
    "body_parts": ["Brain", "Shoulder", "Knee", "Spine", "Chest", "Abdomen"],
    "scan_types_available": ["Without Contrast", "With Contrast", "With and Without Contrast"],
    "prices": {
      "MRI": 370,
      "CT": 220,
      "Ultrasound": 155,
      "X-Ray": 110
    },
    "appointment_availability": "2-3 Days",
    "accreditation_status": "ACR Accredited",
    "board_certified": true,
    "active": true
  },
  {
    "id": 23,
    "name": "Galleria Imaging Center",
    "address": "5920 Richmond Ave",
    "city": "Houston",
    "state": "TX",
    "zip_code": "77057",
    "latitude": 29.7336,
    "longitude": -95.4831,
    "studies_offered": ["MRI", "CT", "Ultrasound", "X-Ray", "Mammography"],
    "body_parts": ["Brain", "Shoulder", "Knee", "Spine", "Chest"],
    "scan_types_available": ["Without Contrast", "With Contrast", "With and Without Contrast"],
    "prices": {
      "MRI": 355,
      "CT": 210,
      "Ultrasound": 155,
      "X-Ray": 105,
      "Mammography": 215
    },
    "appointment_availability": "1-2 Days",
    "accreditation_status": "ACR Accredited",
    "board_certified": true,
    "active": true
  },
  {
    "id": 24,
    "name": "Midtown Manhattan Radiology",
    "address": "16 E 52nd St",
    "city": "New York",
    "state": "NY",
    "zip_code": "10022",
    "latitude": 40.7588,
    "longitude": -73.9750,
    "studies_offered": ["MRI", "CT", "Ultrasound", "X-Ray", "PET/CT"],
    "body_parts": ["Brain", "Shoulder", "Knee", "Spine", "Chest", "Abdomen", "Pelvis"],
    "scan_types_available": ["Without Contrast", "With Contrast", "With and Without Contrast"],
    "prices": {
      "MRI": 400,
      "CT": 245,
      "Ultrasound": 175,
      "X-Ray": 125,
      "PET/CT": 1225
    },
    "appointment_availability": "2-4 Days",
    "accreditation_status": "ACR Accredited",
    "board_certified": true,
    "active": true
  },
  {
    "id": 25,
    "name": "Lake View Imaging Center",
    "address": "2656 N Lakeview Ave",
    "city": "Chicago",
    "state": "IL",
    "zip_code": "60614",
    "latitude": 41.9294,
    "longitude": -87.6423,
    "studies_offered": ["MRI", "CT", "Ultrasound", "X-Ray", "Mammography"],
    "body_parts": ["Brain", "Shoulder", "Knee", "Spine", "Chest", "Abdomen"],
    "scan_types_available": ["Without Contrast", "With Contrast", "With and Without Contrast"],
    "prices": {
      "MRI": 375,
      "CT": 225,
      "Ultrasound": 160,
      "X-Ray": 115,
      "Mammography": 230
    },
    "appointment_availability": "1-3 Days",
    "accreditation_status": "ACR Accredited",
    "board_certified": true,
    "active": true
  }
]